{"type":"Topology","bbox":[-71.15409215762341, 42.35558856917958, -71.08660658604605, 42.392311052420766],"transform":{"translate": [-71.15409215762341, 42.35558856917958], "scale": [6.749232080944552e-06, 3.6726155856770668e-06]},"objects":{"PUBLICSAFETY_EmergencyShelters":{"type":"GeometryCollection","geometries":[{"type": "Point", "id": 1, "coordinates": [9999, 3756], "properties": {"Capacity": 1209, "Name": "Kennedy / Longfellow School", "GlobalID": "{3318A5E3-4D50-4F2B-BBFD-5D5C5296C34D}", "CONCATEID": "496-1", "SHELTER": "YES", "SHEL_CAP": 1209, "ZipCode": "02141", "Phone": "617-349-6841", "MED_FAC": "NO", "Address": "158 Spring Street", "SHEL_FOOD": "YES", "Type": "Emergency Shelters"}},{"type": "Point", "id": 12, "coordinates": [3809, 9907], "properties": {"SHEL_FOOD": "YES", "Name": "Gately Youth Center", "GlobalID": "{ACAD8AA5-0D1D-4E0D-B2EC-2E3DFE2204C4}", "CONCATEID": "73-1", "SHELTER": "YES", "ZipCode": "02140", "Phone": "617-349-6277", "MED_FAC": "NO", "Address": "70R Rindge Ave", "Type": "Emergency Shelters"}},{"type": "Point", "id": 14, "coordinates": [7884, 741], "properties": {"Capacity": 107, "Name": "CASPAR Shelter", "GlobalID": "{8FC29BC4-E3FC-4C07-B620-17FF34B05E93}", "CONCATEID": "699-20", "SHELTER": "YES", "SHEL_CAP": 107, "ZipCode": "02139", "Phone": "617-661-0600", "MED_FAC": "NO", "Address": "240 Albany St", "SHEL_FOOD": "YES", "Type": "Emergency Shelters", "EditDate": "2013"}},{"type": "Point", "id": 3, "coordinates": [4490, 7346], "properties": {"Capacity": 626, "Name": "Graham & Parks School", "GlobalID": "{E3BCEC13-D478-4C6E-8BEA-FECC438CFEB4}", "CONCATEID": "195-1", "SHELTER": "YES", "SHEL_CAP": 626, "ZipCode": "02138", "Phone": "617-349-6577", "MED_FAC": "NO", "Address": "44 Linnaean Street", "SHEL_FOOD": "YES", "Type": "Emergency Shelters"}},{"type": "Point", "id": 5, "coordinates": [6132, 0], "properties": {"Capacity": 577, "Name": "Morse School", "GlobalID": "{21DEACEF-2CFE-4F21-BA4E-F9EB9317839A}", "CONCATEID": "740-1", "SHELTER": "YES", "SHEL_CAP": 577, "ZipCode": "02139", "Phone": "617-349-6513", "MED_FAC": "NO", "Address": "40 Granite Street", "SHEL_FOOD": "YES", "Type": "Emergency Shelters"}},{"type": "Point", "id": 7, "coordinates": [8328, 3732], "properties": {"Capacity": 340, "Name": "Cambridgeport School", "GlobalID": "{70048872-812D-42FD-A2F3-55450488F9F0}", "CONCATEID": "456-3", "SHELTER": "YES", "SHEL_CAP": 340, "ZipCode": "02139", "Phone": "617-349-6587", "MED_FAC": "NO", "Address": "89 Elm St", "SHEL_FOOD": "YES", "Type": "Emergency Shelters", "EditDate": "2013"}},{"type": "Point", "id": 9, "coordinates": [9244, 4458], "properties": {"Capacity": 374, "Name": "King Open School", "GlobalID": "{89BE5772-FF59-4584-9599-9E2D4259A38D}", "CONCATEID": "404-2", "SHELTER": "YES", "SHEL_CAP": 374, "ZipCode": "02141", "Phone": "617-349-6540", "MED_FAC": "NO", "Address": "850 Cambridge St", "SHEL_FOOD": "YES", "Type": "Emergency Shelters", "EditDate": "2013"}},{"type": "Point", "id": 11, "coordinates": [3811, 9998], "properties": {"Capacity": 584, "Name": "Peabody School", "GlobalID": "{86B058E1-4973-4341-A735-CF021A8ED914}", "CONCATEID": "73-1", "SHELTER": "YES", "SHEL_CAP": 584, "ZipCode": "02140", "Phone": "617-349-6530", "MED_FAC": "NO", "Address": "70 Rindge Avenue", "SHEL_FOOD": "YES", "Type": "Emergency Shelters"}},{"type": "Point", "id": 13, "coordinates": [9169, 4213], "properties": {"Capacity": 129, "Name": "Frisoli Youth Center", "GlobalID": "{CB8963A4-17DE-4F6F-9429-814FB26E9E9C}", "CONCATEID": "404-1", "SHELTER": "YES", "SHEL_CAP": 129, "ZipCode": "02141", "Phone": "617-349-6312", "MED_FAC": "NO", "Address": "61 Willow St", "SHEL_FOOD": "YES", "Type": "Emergency Shelters"}},{"type": "Point", "id": 15, "coordinates": [0, 6734], "properties": {"Capacity": 142, "Name": "Russell / West Cambridge Youth Ctr", "GlobalID": "{863ECF22-D4F3-4054-AB51-139C8BCD418A}", "CONCATEID": "245-25", "SHELTER": "YES", "SHEL_CAP": 142, "ZipCode": "02138", "Phone": "617-349-6314", "MED_FAC": "NO", "Address": "680 Huron Ave", "SHEL_FOOD": "YES", "Type": "Emergency Shelters", "EditDate": "2013"}},{"type": "Point", "id": 2, "coordinates": [2127, 7871], "properties": {"Capacity": 733, "Name": "Tobin School", "GlobalID": "{48FC40BD-C76D-4C5D-9A99-34F6D39BBA55}", "CONCATEID": "133-18", "SHELTER": "YES", "SHEL_CAP": 733, "ZipCode": "02138", "Phone": "617-349-6600", "MED_FAC": "NO", "Address": "197 Vassal Lane", "SHEL_FOOD": "YES", "Type": "Emergency Shelters"}},{"type": "Point", "id": 4, "coordinates": [6561, 5068], "properties": {"Capacity": 4618, "Name": "Cambridge Rindge and Latin", "GlobalID": "{BC7295E7-78AC-436E-8B27-358B545A7E0C}", "CONCATEID": "328-2", "SHELTER": "YES", "SHEL_CAP": 4618, "ZipCode": "02138", "Phone": "617-349-6630", "MED_FAC": "NO", "Address": "459 Broadway", "SHEL_FOOD": "YES", "Type": "Emergency Shelters"}},{"type": "Point", "id": 6, "coordinates": [5540, 7284], "properties": {"Capacity": 321, "Name": "Baldwin School", "GlobalID": "{D5E170D4-BB0E-4970-808F-06E4D8B0F3E3}", "CONCATEID": "214-12", "SHELTER": "YES", "SHEL_CAP": 321, "ZipCode": "02138", "Phone": "617-349-6525", "MED_FAC": "NO", "Address": "28 Sacramento St", "SHEL_FOOD": "YES", "Type": "Emergency Shelters", "EditDate": "2013"}},{"type": "Point", "id": 8, "coordinates": [222, 6112], "properties": {"Capacity": 304, "Name": "Haggerty School", "GlobalID": "{4E16D450-562A-4607-A8EA-E5C550E275C3}", "CONCATEID": "273-23", "SHELTER": "YES", "SHEL_CAP": 304, "ZipCode": "02138", "Phone": "617-349-6555", "MED_FAC": "NO", "Address": "110 Cushing St", "SHEL_FOOD": "YES", "Type": "Emergency Shelters", "EditDate": "2013"}},{"type": "Point", "id": 10, "coordinates": [8624, 3049], "properties": {"Capacity": 393, "Name": "Fletcher / Maynard Academy", "GlobalID": "{3ED0C75D-7524-4657-A900-8B4B5C5A983C}", "CONCATEID": "567-6", "SHELTER": "YES", "SHEL_CAP": 393, "ZipCode": "02139", "Phone": "617-349-6588", "MED_FAC": "NO", "Address": "225 Windsor St", "SHEL_FOOD": "YES", "Type": "Emergency Shelters", "EditDate": "2013"}}]}},"arcs":[]}