{"type":"FeatureCollection","features":[{"geometry": {"type": "Point", "coordinates": [-71.08660658604605, 42.36938459118806]}, "type": "Feature", "id": 1, "properties": {"Capacity": 1209, "Name": "Kennedy / Longfellow School", "GlobalID": "{829505F8-F165-44CF-BC74-16EADAEA4655}", "SHEL_CAP": 1209, "SHELTER": "YES", "CONCATEID": "496-1", "ZipCode": "02141", "Phone": "617-349-6841", "MED_FAC": "NO", "Address": "158 Spring Street", "SHEL_FOOD": "YES", "Type": "Emergency Shelters"}},{"geometry": {"type": "Point", "coordinates": [-71.13973093806156, 42.38449721595724]}, "type": "Feature", "id": 3, "properties": {"Capacity": 733, "Name": "Tobin School", "GlobalID": "{2EACE9E1-A39E-4B84-A473-33FFF71197FE}", "SHEL_CAP": 733, "SHELTER": "YES", "CONCATEID": "133-18", "ZipCode": "02138", "Phone": "617-349-6600", "MED_FAC": "NO", "Address": "197 Vassal Lane", "SHEL_FOOD": "YES", "Type": "Emergency Shelters"}},{"geometry": {"type": "Point", "coordinates": [-71.12378755871153, 42.382568292561416]}, "type": "Feature", "id": 4, "properties": {"Capacity": 626, "Name": "Graham & Parks School", "GlobalID": "{CD78F441-3C87-4E9C-A662-F814C15B8F21}", "SHEL_CAP": 626, "SHELTER": "YES", "CONCATEID": "195-1", "ZipCode": "02138", "Phone": "617-349-6577", "MED_FAC": "NO", "Address": "44 Linnaean Street", "SHEL_FOOD": "YES", "Type": "Emergency Shelters"}},{"geometry": {"type": "Point", "coordinates": [-71.10980504272297, 42.37420497038805]}, "type": "Feature", "id": 5, "properties": {"Capacity": 4618, "Name": "Cambridge Rindge and Latin", "GlobalID": "{2691E69B-EABE-4C1F-A41B-AD114D388604}", "SHEL_CAP": 4618, "SHELTER": "YES", "CONCATEID": "328-2", "ZipCode": "02138", "Phone": "617-349-6630", "MED_FAC": "NO", "Address": "459 Broadway", "SHEL_FOOD": "YES", "Type": "Emergency Shelters"}},{"geometry": {"type": "Point", "coordinates": [-71.11269919898434, 42.35558856917958]}, "type": "Feature", "id": 6, "properties": {"Capacity": 577, "Name": "Morse School", "GlobalID": "{923E5AE9-7F3F-470B-AD02-EC97B1EDB06E}", "SHEL_CAP": 577, "SHELTER": "YES", "CONCATEID": "740-1", "ZipCode": "02139", "Phone": "617-349-6513", "MED_FAC": "NO", "Address": "40 Granite Street", "SHEL_FOOD": "YES", "Type": "Emergency Shelters"}},{"geometry": {"type": "Point", "coordinates": [-71.11669673877572, 42.382341261264216]}, "type": "Feature", "id": 7, "properties": {"Capacity": 321, "Name": "Baldwin School", "GlobalID": "{448DA561-54E7-496F-A1A1-07335E448F96}", "SHEL_CAP": 321, "SHELTER": "YES", "CONCATEID": "214-12", "ZipCode": "02138", "Phone": "617-349-6525", "MED_FAC": "NO", "Address": "28 Sacramento St", "SHEL_FOOD": "YES", "Type": "Emergency Shelters", "EditDate": "2013"}},{"geometry": {"type": "Point", "coordinates": [-71.09788375537151, 42.369295344084414]}, "type": "Feature", "id": 8, "properties": {"Capacity": 340, "Name": "Cambridgeport School", "GlobalID": "{618C57C3-74C9-4B25-8A3B-24B388427F83}", "SHEL_CAP": 340, "SHELTER": "YES", "CONCATEID": "456-3", "ZipCode": "02139", "Phone": "617-349-6587", "MED_FAC": "NO", "Address": "89 Elm St", "SHEL_FOOD": "YES", "Type": "Emergency Shelters", "EditDate": "2013"}},{"geometry": {"type": "Point", "coordinates": [-71.15259276797016, 42.37803886821655]}, "type": "Feature", "id": 9, "properties": {"Capacity": 304, "Name": "Haggerty School", "GlobalID": "{BA89D2F4-9A48-45F6-8A07-1EBDE0F12F8B}", "SHEL_CAP": 304, "SHELTER": "YES", "CONCATEID": "273-23", "ZipCode": "02138", "Phone": "617-349-6555", "MED_FAC": "NO", "Address": "110 Cushing St", "SHEL_FOOD": "YES", "Type": "Emergency Shelters", "EditDate": "2013"}},{"geometry": {"type": "Point", "coordinates": [-71.09170149962868, 42.37196421673053]}, "type": "Feature", "id": 10, "properties": {"Capacity": 374, "Name": "King Open School", "GlobalID": "{4DBBD037-E4A5-468C-914B-31CE4050E1E0}", "SHEL_CAP": 374, "SHELTER": "YES", "CONCATEID": "404-2", "ZipCode": "02141", "Phone": "617-349-6540", "MED_FAC": "NO", "Address": "850 Cambridge St", "SHEL_FOOD": "YES", "Type": "Emergency Shelters", "EditDate": "2013"}},{"geometry": {"type": "Point", "coordinates": [-71.0958858198405, 42.36678961085694]}, "type": "Feature", "id": 11, "properties": {"Capacity": 393, "Name": "Fletcher / Maynard Academy", "GlobalID": "{A67EE6F5-1BF9-4E57-8D95-13E07654F010}", "SHEL_CAP": 393, "SHELTER": "YES", "CONCATEID": "567-6", "ZipCode": "02139", "Phone": "617-349-6588", "MED_FAC": "NO", "Address": "225 Windsor St", "SHEL_FOOD": "YES", "Type": "Emergency Shelters", "EditDate": "2013"}},{"geometry": {"type": "Point", "coordinates": [-71.12836872951732, 42.392311052420766]}, "type": "Feature", "id": 2, "properties": {"Capacity": 584, "Name": "Peabody School", "GlobalID": "{61F5B8FE-915A-42BC-A82B-EBF914D4F8EF}", "SHEL_CAP": 584, "SHELTER": "YES", "CONCATEID": "73-1", "ZipCode": "02140", "Phone": "617-349-6530", "MED_FAC": "NO", "Address": "70 Rindge Avenue", "SHEL_FOOD": "YES", "Type": "Emergency Shelters"}},{"geometry": {"type": "Point", "coordinates": [-71.12838166712, 42.3919741785689]}, "type": "Feature", "id": 409, "properties": {"SHEL_FOOD": "YES", "Name": "Gately Youth Center", "GlobalID": "{502E970D-3FB6-4FC7-B3B7-5069859EA7C7}", "CONCATEID": "73-1", "SHELTER": "YES", "ZipCode": "02140", "Phone": "617-349-6277", "MED_FAC": "NO", "Address": "70R Rindge Ave", "Type": "Emergency Shelters"}},{"geometry": {"type": "Point", "coordinates": [-71.09220510051384, 42.371061555085724]}, "type": "Feature", "id": 410, "properties": {"Capacity": 129, "Name": "Frisoli Youth Center", "GlobalID": "{0F99F8F4-F37D-4092-AF6D-99AAE4BCF458}", "SHEL_CAP": 129, "SHELTER": "YES", "CONCATEID": "404-1", "ZipCode": "02141", "Phone": "617-349-6312", "MED_FAC": "NO", "Address": "61 Willow St", "SHEL_FOOD": "YES", "Type": "Emergency Shelters"}},{"geometry": {"type": "Point", "coordinates": [-71.10087928964349, 42.35831355324535]}, "type": "Feature", "id": 411, "properties": {"Capacity": 107, "Name": "CASPAR Shelter", "GlobalID": "{99FE2F49-9F51-454E-B6C6-4D1816C669D1}", "SHEL_CAP": 107, "SHELTER": "YES", "CONCATEID": "699-20", "ZipCode": "02139", "Phone": "617-661-0600", "MED_FAC": "NO", "Address": "240 Albany St", "SHEL_FOOD": "YES", "Type": "Emergency Shelters", "EditDate": "2013"}},{"geometry": {"type": "Point", "coordinates": [-71.15409215762341, 42.38032242347741]}, "type": "Feature", "id": 412, "properties": {"Capacity": 142, "Name": "Russell / West Cambridge Youth Ctr", "GlobalID": "{919878E6-3E72-4877-9282-20F7FF2662BC}", "SHEL_CAP": 142, "SHELTER": "YES", "CONCATEID": "245-25", "ZipCode": "02138", "Phone": "617-349-6314", "MED_FAC": "NO", "Address": "680 Huron Ave", "SHEL_FOOD": "YES", "Type": "Emergency Shelters", "EditDate": "2013"}}]}